
{"stores":[{"address":"7801 Citrus Park Town Center Mall","city":"Tampa","name":"Macy's","latitude":"28.068052","zipcode":"33625","storeLogoURL":"http://sandbox.bottlerocketapps.com/BR_Android_CodingExam_2015_Server/images/macys.jpeg","phone":"813-926-7300","longitude":"-82.573301","storeID":"1234","state":"FL"},{"address":"27001 US Highway 19 N","city":"Clearwater","name":"Dillards's","latitude":"27.9898988","zipcode":"33761","storeLogoURL":"http://sandbox.bottlerocketapps.com/BR_Android_CodingExam_2015_Server/images/Dillards.jpeg","phone":"727-296-2242","longitude":"-82.7294986","storeID":"1235","state":"FL"},{"address":"7802 Citrus Park Town Center Mall","city":"Tampa","name":"Foleys","latitude":"28.078052","zipcode":"33625","storeLogoURL":"http://sandbox.bottlerocketapps.com/BR_Android_CodingExam_2015_Server/images/foleys.jpeg","phone":"813-926-7301","longitude":"-82.583301","storeID":"1236","state":"FL"},{"address":"27002 US Highway 19 N","city":"Clearwater","name":"Nordstrom","latitude":"27.9998988","zipcode":"33761","storeLogoURL":"http://sandbox.bottlerocketapps.com/BR_Android_CodingExam_2015_Server/images/nordstrom.jpeg","phone":"727-296-2243","longitude":"-82.7295986","storeID":"1237","state":"FL"},{"address":"7803 Citrus Park Town Center Mall","city":"Tampa","name":"Macy's","latitude":"28.078152","zipcode":"33625","storeLogoURL":"http://sandbox.bottlerocketapps.com/BR_Android_CodingExam_2015_Server/images/macys.jpeg","phone":"813-926-7302","longitude":"-82.583401","storeID":"1238","state":"FL"},{"address":"27003 US Highway 19 N","city":"Clearwater","name":"Sears","latitude":"27.9999988","zipcode":"33761","storeLogoURL":"http://sandbox.bottlerocketapps.com/BR_Android_CodingExam_2015_Server/images/sears.jpeg","phone":"727-296-2244","longitude":"-82.7296006","storeID":"1239","state":"FL"},{"address":"7804 Citrus Park Town Center Mall","city":"Tampa","name":"Target","latitude":"28.078252","zipcode":"33625","storeLogoURL":"http://sandbox.bottlerocketapps.com/BR_Android_CodingExam_2015_Server/images/target.jpeg","phone":"813-926-7303","longitude":"-82.583501","storeID":"1240","state":"FL"},{"address":"27004 US Highway 19 N","city":"Clearwater","name":"Kohl's","latitude":"27.9999998","zipcode":"33761","storeLogoURL":"http://sandbox.bottlerocketapps.com/BR_Android_CodingExam_2015_Server/images/kohls.jpeg","phone":"727-296-2245","longitude":"-82.7296106","storeID":"1241","state":"FL"},{"address":"7805 Citrus Park Town Center Mall","city":"Tampa","name":"H & M","latitude":"28.078352","zipcode":"33625","storeLogoURL":"http://sandbox.bottlerocketapps.com/BR_Android_CodingExam_2015_Server/images/HandM.jpeg","phone":"813-926-7304","longitude":"-82.583601","storeID":"1242","state":"FL"},{"address":"27005 US Highway 19 N","city":"Clearwater","name":"Neiman Marcus","latitude":"27.9999999","zipcode":"33761","storeLogoURL":"http://sandbox.bottlerocketapps.com/BR_Android_CodingExam_2015_Server/images/neimanmarcus.jpeg","phone":"727-296-2246","longitude":"-82.7296206","storeID":"1243","state":"FL"},{"address":"7806 Citrus Park Town Center Mall","city":"Tampa","name":"Foleys","latitude":"28.078452","zipcode":"33625","storeLogoURL":"http://sandbox.bottlerocketapps.com/BR_Android_CodingExam_2015_Server/images/foleys.jpeg","phone":"813-926-7305","longitude":"-82.583701","storeID":"1244","state":"FL"},{"address":"27006 US Highway 19 N","city":"Clearwater","name":"Nordstrom","latitude":"28.0","zipcode":"33761","storeLogoURL":"http://sandbox.bottlerocketapps.com/BR_Android_CodingExam_2015_Server/images/nordstrom.jpeg","phone":"727-296-2247","longitude":"-82.7296306","storeID":"1245","state":"FL"},{"address":"7807 Citrus Park Town Center Mall","city":"Tampa","name":"Macy's","latitude":"28.078552","zipcode":"33625","storeLogoURL":"http://sandbox.bottlerocketapps.com/BR_Android_CodingExam_2015_Server/images/macys.jpeg","phone":"813-926-7306","longitude":"-82.583801","storeID":"1246","state":"FL"},{"address":"27007 US Highway 19 N","city":"Clearwater","name":"Sears","latitude":"28.001","zipcode":"33761","storeLogoURL":"http://sandbox.bottlerocketapps.com/BR_Android_CodingExam_2015_Server/images/sears.jpeg","phone":"727-296-2248","longitude":"-82.7296406","storeID":"1247","state":"FL"},{"address":"7808 Citrus Park Town Center Mall","city":"Tampa","name":"Target","latitude":"28.078652","zipcode":"33625","storeLogoURL":"http://sandbox.bottlerocketapps.com/BR_Android_CodingExam_2015_Server/images/target.jpeg","phone":"813-926-7307","longitude":"-82.583901","storeID":"1248","state":"FL"},{"address":"27008 US Highway 19 N","city":"Clearwater","name":"Kohl's","latitude":"28.002","zipcode":"33761","storeLogoURL":"http://sandbox.bottlerocketapps.com/BR_Android_CodingExam_2015_Server/images/kohls.jpeg","phone":"727-296-2249","longitude":"-82.7296506","storeID":"1249","state":"FL"},{"address":"7809 Citrus Park Town Center Mall","city":"Tampa","name":"H & M","latitude":"28.078752","zipcode":"33625","storeLogoURL":"http://sandbox.bottlerocketapps.com/BR_Android_CodingExam_2015_Server/images/HandM.jpeg","phone":"813-926-7308","longitude":"-82.584001","storeID":"1250","state":"FL"},{"address":"27009 US Highway 19 N","city":"Clearwater","name":"Neiman Marcus","latitude":"28.003","zipcode":"33761","storeLogoURL":"http://sandbox.bottlerocketapps.com/BR_Android_CodingExam_2015_Server/images/neimanmarcus.jpeg","phone":"727-296-2250","longitude":"-82.7296606","storeID":"1251","state":"FL"},{"address":"7900 Citrus Park Town Center Mall","city":"Tampa","name":"Painter's Warehouse","latitude":"28.078852","zipcode":"33625","storeLogoURL":"http://sandbox.bottlerocketapps.com/BR_Android_CodingExam_2015_Server/images/macys.jpeg","phone":"813-926-7309","longitude":"-82.584002","storeID":"1252","state":"FL"},{"address":"28000 US Highway 19 N","city":"Clearwater","name":"Glamour Dome","latitude":"28.004","zipcode":"33761","storeLogoURL":"http://sandbox.bottlerocketapps.com/BR_Android_CodingExam_2015_Server/images/Dillards.jpeg","phone":"727-296-2251","longitude":"-82.7296706","storeID":"1253","state":"FL"},{"address":"7901 Citrus Park Town Center Mall","city":"Tampa","name":"Clown College","latitude":"28.078952","zipcode":"33625","storeLogoURL":"http://sandbox.bottlerocketapps.com/BR_Android_CodingExam_2015_Server/images/target.jpeg","phone":"813-926-7310","longitude":"-82.584003","storeID":"1254","state":"FL"},{"address":"28001 US Highway 19 N","city":"Clearwater","name":"Bling Bling","latitude":"28.005","zipcode":"33761","storeLogoURL":"http://sandbox.bottlerocketapps.com/BR_Android_CodingExam_2015_Server/images/foleys.jpeg","phone":"727-296-2252","longitude":"-82.7296806","storeID":"1255","state":"FL"}]}